{
  "cities": [
    {
      "cityName": "Las Rozas de Madrid",
      "country": "Spain",
      "emoji": "ðŸ‡ªðŸ‡¸",
      "date": "2025-03-27T14:39:58.559Z",
      "notes": "",
      "position": {
        "lat": "40.49378591607586",
        "lng": "-3.858650769657038"
      },
      "id": 73930386
    },
    {
      "cityName": "Estamariu",
      "country": "Spain",
      "emoji": "ðŸ‡ªðŸ‡¸",
      "date": "2025-03-27T14:43:47.890Z",
      "notes": "",
      "position": {
        "lat": "42.376865022808886",
        "lng": "1.5572692204016605"
      },
      "id": 73930387
    },
    {
      "cityName": "Villarluengo",
      "country": "Spain",
      "emoji": "ðŸ‡ªðŸ‡¸",
      "date": "2025-03-27T17:10:55.836Z",
      "notes": "",
      "position": {
        "lat": "40.68405071339045",
        "lng": "-0.551463984576952"
      },
      "id": 73930389
    },
    {
      "cityName": "Sesma",
      "country": "Spain",
      "emoji": "ðŸ‡ªðŸ‡¸",
      "date": "2025-03-27T17:14:58.140Z",
      "notes": "",
      "position": {
        "lat": "42.49030089357309",
        "lng": "-2.154979859196105"
      },
      "id": 73930390
    },
    {
      "cityName": "Tomar",
      "country": "Portugal",
      "emoji": "ðŸ‡µðŸ‡¹",
      "date": "2025-03-27T17:15:02.427Z",
      "notes": "",
      "position": {
        "lat": "39.662563123702114",
        "lng": "-8.372004785457001"
      },
      "id": 73930391
    },
    {
      "cityName": "Carballedo",
      "country": "Spain",
      "emoji": "ðŸ‡ªðŸ‡¸",
      "date": "2025-03-27T17:15:07.412Z",
      "notes": "",
      "position": {
        "lat": "42.55705438197149",
        "lng": "-7.824540225258267"
      },
      "id": 73930392
    },
    {
      "cityName": "Haskovo",
      "country": "Bulgaria",
      "emoji": "ðŸ‡§ðŸ‡¬",
      "date": "2025-03-28T04:59:04.785Z",
      "notes": "yytdejc",
      "position": {
        "lat": "41.98657755416851",
        "lng": "25.61689326543929"
      },
      "id": 73930393
    }
  ]
}