{
  "cities": [
    {
      "cityName": "Las Rozas de Madrid",
      "country": "Spain",
      "emoji": "ðŸ‡ªðŸ‡¸",
      "date": "2025-03-27T14:39:58.559Z",
      "notes": "",
      "position": {
        "lat": "40.49378591607586",
        "lng": "-3.858650769657038"
      },
      "id": 73930386
    },
    {
      "cityName": "Villarluengo",
      "country": "Spain",
      "emoji": "ðŸ‡ªðŸ‡¸",
      "date": "2025-03-27T17:10:55.836Z",
      "notes": "",
      "position": {
        "lat": "40.68405071339045",
        "lng": "-0.551463984576952"
      },
      "id": 73930389
    },
    {
      "cityName": "Sesma",
      "country": "Spain",
      "emoji": "ðŸ‡ªðŸ‡¸",
      "date": "2025-03-27T17:14:58.140Z",
      "notes": "",
      "position": {
        "lat": "42.49030089357309",
        "lng": "-2.154979859196105"
      },
      "id": 73930390
    },
    {
      "cityName": "Haskovo",
      "country": "Bulgaria",
      "emoji": "ðŸ‡§ðŸ‡¬",
      "date": "2025-03-28T04:59:04.785Z",
      "notes": "yytdejc",
      "position": {
        "lat": "41.98657755416851",
        "lng": "25.61689326543929"
      },
      "id": 73930393
    },
    {
      "cityName": "Albacete",
      "country": "Spain",
      "emoji": "ðŸ‡ªðŸ‡¸",
      "date": "2025-03-31T12:11:37.145Z",
      "notes": "",
      "position": {
        "lat": "38.981268162087524",
        "lng": "-1.7815583541478142"
      },
      "id": 73930394
    }
  ]
}